var villesma = 
{"type":"FeatureCollection","crs":{"type":"name","properties":{"name":"EPSG:4326"}},"features":[{"type":"Feature","id":0,"geometry":{"type":"Point","coordinates":[-6.8838998809999339,30.885245041000076]},"properties":{"FID":0,"OBJECTID":1,"NOM":"Ouarzazate"}},{"type":"Feature","id":1,"geometry":{"type":"Point","coordinates":[-9.7455882319999318,31.468315289000031]},"properties":{"FID":1,"OBJECTID":2,"NOM":"Essaouira"}},{"type":"Feature","id":2,"geometry":{"type":"Point","coordinates":[-11.113231835999954,28.452691239000046]},"properties":{"FID":2,"OBJECTID":3,"NOM":"Tan-Tan"}},{"type":"Feature","id":3,"geometry":{"type":"Point","coordinates":[-8.9054876799999647,30.441092222000066]},"properties":{"FID":3,"OBJECTID":4,"NOM":"Taroudannt"}},{"type":"Feature","id":4,"geometry":{"type":"Point","coordinates":[-9.1866899439999656,30.415332406000061]},"properties":{"FID":4,"OBJECTID":5,"NOM":"Oulad Teima"}},{"type":"Feature","id":5,"geometry":{"type":"Point","coordinates":[-9.6871612369999411,29.71391314400006]},"properties":{"FID":5,"OBJECTID":6,"NOM":"Tiznit"}},{"type":"Feature","id":6,"geometry":{"type":"Point","coordinates":[-10.071721737999951,28.994837162000067]},"properties":{"FID":6,"OBJECTID":7,"NOM":"Goulmime"}},{"type":"Feature","id":7,"geometry":{"type":"Point","coordinates":[-4.4985962089999703,31.880480702000057]},"properties":{"FID":7,"OBJECTID":8,"NOM":"Errachidia"}},{"type":"Feature","id":8,"geometry":{"type":"Point","coordinates":[-11.576260206999962,26.656183705000046]},"properties":{"FID":8,"OBJECTID":9,"NOM":"Smara"}},{"type":"Feature","id":9,"geometry":{"type":"Point","coordinates":[-15.816094390999979,23.675151048000032]},"properties":{"FID":9,"OBJECTID":10,"NOM":"Dakhla"}},{"type":"Feature","id":10,"geometry":{"type":"Point","coordinates":[-8.0174346799999512,31.647963573000027]},"properties":{"FID":10,"OBJECTID":11,"NOM":"MARRAKECH"}},{"type":"Feature","id":11,"geometry":{"type":"Point","coordinates":[-9.5720733219999374,30.439794203000076]},"properties":{"FID":11,"OBJECTID":12,"NOM":"AGADIR"}},{"type":"Feature","id":12,"geometry":{"type":"Point","coordinates":[-13.166148975999931,27.223242085000038]},"properties":{"FID":12,"OBJECTID":13,"NOM":"Laayoune"}},{"type":"Feature","id":13,"geometry":{"type":"Point","coordinates":[-6.5833147939999321,31.039111073000072]},"properties":{"FID":13,"OBJECTID":14,"NOM":"Skoura"}},{"type":"Feature","id":14,"geometry":{"type":"Point","coordinates":[-6.1578051979999486,31.213640275000046]},"properties":{"FID":14,"OBJECTID":15,"NOM":"Kelaa Magouna"}},{"type":"Feature","id":15,"geometry":{"type":"Point","coordinates":[-9.6672366389999524,31.029069307000043]},"properties":{"FID":15,"OBJECTID":16,"NOM":"Tamanar"}},{"type":"Feature","id":16,"geometry":{"type":"Point","coordinates":[-9.4679678529999478,31.488029464000078]},"properties":{"FID":16,"OBJECTID":17,"NOM":"Tleta Henchane"}},{"type":"Feature","id":17,"geometry":{"type":"Point","coordinates":[-9.3747183499999664,31.049900755000067]},"properties":{"FID":17,"OBJECTID":18,"NOM":"Sebt Ait Daoud"}},{"type":"Feature","id":18,"geometry":{"type":"Point","coordinates":[-9.0041622129999723,29.730427547000033]},"properties":{"FID":18,"OBJECTID":19,"NOM":"Tafraoute"}},{"type":"Feature","id":19,"geometry":{"type":"Point","coordinates":[-9.119978916999969,30.080779765000045]},"properties":{"FID":19,"OBJECTID":20,"NOM":"Ait Baha"}},{"type":"Feature","id":20,"geometry":{"type":"Point","coordinates":[-7.9113052449999373,31.317014003000054]},"properties":{"FID":20,"OBJECTID":21,"NOM":"Tahanoute"}},{"type":"Feature","id":21,"geometry":{"type":"Point","coordinates":[-9.3340615669999352,30.176604593000036]},"properties":{"FID":21,"OBJECTID":22,"NOM":"Biougra"}},{"type":"Feature","id":22,"geometry":{"type":"Point","coordinates":[-7.5396271159999628,31.790788785000075]},"properties":{"FID":22,"OBJECTID":23,"NOM":"Tamelalt"}},{"type":"Feature","id":23,"geometry":{"type":"Point","coordinates":[-7.9550964949999639,30.506655950000038]},"properties":{"FID":23,"OBJECTID":24,"NOM":"Taliouine"}},{"type":"Feature","id":24,"geometry":{"type":"Point","coordinates":[-6.4712806089999617,30.664767056000073]},"properties":{"FID":24,"OBJECTID":25,"NOM":"Agdz"}},{"type":"Feature","id":25,"geometry":{"type":"Point","coordinates":[-8.738572425999962,31.50249519700003]},"properties":{"FID":25,"OBJECTID":26,"NOM":"Chichaoua"}},{"type":"Feature","id":26,"geometry":{"type":"Point","coordinates":[-8.2639038529999311,31.187096112000063]},"properties":{"FID":26,"OBJECTID":27,"NOM":"Amizmiz"}},{"type":"Feature","id":27,"geometry":{"type":"Point","coordinates":[-9.6649446499999385,29.188834911000072]},"properties":{"FID":27,"OBJECTID":28,"NOM":"Bou Izakarn"}},{"type":"Feature","id":28,"geometry":{"type":"Point","coordinates":[-7.6350530089999324,31.530013120000035]},"properties":{"FID":28,"OBJECTID":29,"NOM":"Ait Ourir"}},{"type":"Feature","id":29,"geometry":{"type":"Point","coordinates":[-9.0430314279999493,31.601301407000051]},"properties":{"FID":29,"OBJECTID":30,"NOM":"Sidi Mokhtar"}},{"type":"Feature","id":30,"geometry":{"type":"Point","coordinates":[-8.8194132179999656,31.138129331000073]},"properties":{"FID":30,"OBJECTID":31,"NOM":"Imi n'Tanoute"}},{"type":"Feature","id":31,"geometry":{"type":"Point","coordinates":[-8.3089715789999445,31.68522346900005]},"properties":{"FID":31,"OBJECTID":32,"NOM":"Sidi Zouine"}},{"type":"Feature","id":32,"geometry":{"type":"Point","coordinates":[-8.0014972509999325,29.717156670000065]},"properties":{"FID":32,"OBJECTID":33,"NOM":"Tata"}},{"type":"Feature","id":33,"geometry":{"type":"Point","coordinates":[-6.5389796169999386,31.921929076000026]},"properties":{"FID":33,"OBJECTID":34,"NOM":"Azilal"}},{"type":"Feature","id":34,"geometry":{"type":"Point","coordinates":[-6.9770957349999776,31.702017080000076]},"properties":{"FID":34,"OBJECTID":35,"NOM":"Demnate"}},{"type":"Feature","id":35,"geometry":{"type":"Point","coordinates":[-7.4994590509999739,31.615845389000071]},"properties":{"FID":35,"OBJECTID":36,"NOM":"Sidi Rahhal"}},{"type":"Feature","id":36,"geometry":{"type":"Point","coordinates":[-9.6654036699999324,29.935628468000061]},"properties":{"FID":36,"OBJECTID":37,"NOM":"Massa"}},{"type":"Feature","id":37,"geometry":{"type":"Point","coordinates":[-4.9756835889999707,31.443730505000076]},"properties":{"FID":37,"OBJECTID":38,"NOM":"Tinejdad"}},{"type":"Feature","id":38,"geometry":{"type":"Point","coordinates":[-3.5167781609999338,31.94865208300007]},"properties":{"FID":38,"OBJECTID":39,"NOM":"Boudenib"}},{"type":"Feature","id":39,"geometry":{"type":"Point","coordinates":[-4.8963953549999246,31.63193590700007]},"properties":{"FID":39,"OBJECTID":40,"NOM":"Goulmima"}},{"type":"Feature","id":40,"geometry":{"type":"Point","coordinates":[-5.9117681849999713,31.410491085000046]},"properties":{"FID":40,"OBJECTID":41,"NOM":"Boumalne"}},{"type":"Feature","id":41,"geometry":{"type":"Point","coordinates":[-4.2141145769999753,31.221239401000048]},"properties":{"FID":41,"OBJECTID":42,"NOM":"Rissani"}},{"type":"Feature","id":42,"geometry":{"type":"Point","coordinates":[-4.2981466359999558,31.382653262000076]},"properties":{"FID":42,"OBJECTID":43,"NOM":"Erfoud"}},{"type":"Feature","id":43,"geometry":{"type":"Point","coordinates":[-5.5824426239999525,31.572291747000065]},"properties":{"FID":43,"OBJECTID":44,"NOM":"Tinerhir"}},{"type":"Feature","id":44,"geometry":{"type":"Point","coordinates":[-5.7918545499999254,30.268255870000075]},"properties":{"FID":44,"OBJECTID":45,"NOM":"Zagora"}},{"type":"Feature","id":45,"geometry":{"type":"Point","coordinates":[-12.817476402999944,27.826444752000043]},"properties":{"FID":45,"OBJECTID":46,"NOM":"Tarfaya"}},{"type":"Feature","id":46,"geometry":{"type":"Point","coordinates":[-16.846922571999983,20.934858208000037]},"properties":{"FID":46,"OBJECTID":47,"NOM":"Lagouira"}},{"type":"Feature","id":47,"geometry":{"type":"Point","coordinates":[-14.404082264999943,26.069783402000041]},"properties":{"FID":47,"OBJECTID":48,"NOM":"Boujdour"}},{"type":"Feature","id":48,"geometry":{"type":"Point","coordinates":[-10.148398782999948,29.369714661000046]},"properties":{"FID":48,"OBJECTID":49,"NOM":"Sidi Ifni"}},{"type":"Feature","id":49,"geometry":{"type":"Point","coordinates":[-5.8182191469999793,35.781547431000035]},"properties":{"FID":49,"OBJECTID":50,"NOM":"TANGER"}},{"type":"Feature","id":50,"geometry":{"type":"Point","coordinates":[-6.8413984409999671,34.018595754000046]},"properties":{"FID":50,"OBJECTID":51,"NOM":"RABAT"}},{"type":"Feature","id":51,"geometry":{"type":"Point","coordinates":[-7.6160582649999355,33.591626133000034]},"properties":{"FID":51,"OBJECTID":52,"NOM":"CASABLANCA"}},{"type":"Feature","id":52,"geometry":{"type":"Point","coordinates":[-5.539122645999953,33.895577428000024]},"properties":{"FID":52,"OBJECTID":53,"NOM":"MEKNES"}},{"type":"Feature","id":53,"geometry":{"type":"Point","coordinates":[-4.9976931079999645,34.056089705000034]},"properties":{"FID":53,"OBJECTID":54,"NOM":"FES"}},{"type":"Feature","id":54,"geometry":{"type":"Point","coordinates":[-1.914687750999974,34.680378548000078]},"properties":{"FID":54,"OBJECTID":55,"NOM":"OUJDA"}},{"type":"Feature","id":55,"geometry":{"type":"Point","coordinates":[-5.3716927389999682,35.571267012000078]},"properties":{"FID":55,"OBJECTID":56,"NOM":"TETOUAN"}},{"type":"Feature","id":56,"geometry":{"type":"Point","coordinates":[-2.9451361829999314,35.287413568000034]},"properties":{"FID":56,"OBJECTID":57,"NOM":"Mellilia"}},{"type":"Feature","id":57,"geometry":{"type":"Point","coordinates":[-2.9290097489999312,35.182271299000035]},"properties":{"FID":57,"OBJECTID":58,"NOM":"Nador"}},{"type":"Feature","id":58,"geometry":{"type":"Point","coordinates":[-3.9331490569999801,35.241200032000052]},"properties":{"FID":58,"OBJECTID":59,"NOM":"Al-Hoceima"}},{"type":"Feature","id":59,"geometry":{"type":"Point","coordinates":[-6.5761555289999478,34.257302788000061]},"properties":{"FID":59,"OBJECTID":60,"NOM":"Kenitra"}},{"type":"Feature","id":60,"geometry":{"type":"Point","coordinates":[-8.510897626999963,33.254640890000076]},"properties":{"FID":60,"OBJECTID":61,"NOM":"El Jadida"}},{"type":"Feature","id":61,"geometry":{"type":"Point","coordinates":[-9.2438203059999751,32.297361093000063]},"properties":{"FID":61,"OBJECTID":62,"NOM":"Safi"}},{"type":"Feature","id":62,"geometry":{"type":"Point","coordinates":[-6.3536291929999607,32.336150315000054]},"properties":{"FID":62,"OBJECTID":63,"NOM":"Beni Mellal"}},{"type":"Feature","id":63,"geometry":{"type":"Point","coordinates":[-4.0161082459999307,34.216942914000072]},"properties":{"FID":63,"OBJECTID":64,"NOM":"Taza"}},{"type":"Feature","id":64,"geometry":{"type":"Point","coordinates":[-6.035729875999948,35.467149111000026]},"properties":{"FID":64,"OBJECTID":65,"NOM":"Asilah"}},{"type":"Feature","id":65,"geometry":{"type":"Point","coordinates":[-2.8947864089999484,34.416974086000039]},"properties":{"FID":65,"OBJECTID":66,"NOM":"Taourirt"}},{"type":"Feature","id":66,"geometry":{"type":"Point","coordinates":[-2.3368213649999348,34.92715058400006]},"properties":{"FID":66,"OBJECTID":67,"NOM":"Berkane"}},{"type":"Feature","id":67,"geometry":{"type":"Point","coordinates":[-5.2613884419999408,35.173347597000031]},"properties":{"FID":67,"OBJECTID":68,"NOM":"Chefchaouen"}},{"type":"Feature","id":68,"geometry":{"type":"Point","coordinates":[-5.9042102339999474,35.000820867000073]},"properties":{"FID":68,"OBJECTID":69,"NOM":"Ksar El Kbir"}},{"type":"Feature","id":69,"geometry":{"type":"Point","coordinates":[-5.5805079319999322,34.801878518000024]},"properties":{"FID":69,"OBJECTID":70,"NOM":"Ouezzane"}},{"type":"Feature","id":70,"geometry":{"type":"Point","coordinates":[-5.7076616199999535,34.222909847000039]},"properties":{"FID":70,"OBJECTID":71,"NOM":"Sidi Kacem"}},{"type":"Feature","id":71,"geometry":{"type":"Point","coordinates":[-5.9212222069999711,34.267146629000024]},"properties":{"FID":71,"OBJECTID":72,"NOM":"Sidi Slimane"}},{"type":"Feature","id":72,"geometry":{"type":"Point","coordinates":[-6.0053877659999557,34.687177680000048]},"properties":{"FID":72,"OBJECTID":73,"NOM":"Souk El Arba"}},{"type":"Feature","id":73,"geometry":{"type":"Point","coordinates":[-3.9875351529999534,33.051244717000031]},"properties":{"FID":73,"OBJECTID":74,"NOM":"Missour"}},{"type":"Feature","id":74,"geometry":{"type":"Point","coordinates":[-4.8346857879999448,33.830863486000055]},"properties":{"FID":74,"OBJECTID":75,"NOM":"Sefrou"}},{"type":"Feature","id":75,"geometry":{"type":"Point","coordinates":[-5.3677694699999279,33.690904383000031]},"properties":{"FID":75,"OBJECTID":76,"NOM":"El Hajeb"}},{"type":"Feature","id":76,"geometry":{"type":"Point","coordinates":[-5.2229088999999362,33.436592448000056]},"properties":{"FID":76,"OBJECTID":77,"NOM":"Azrou"}},{"type":"Feature","id":77,"geometry":{"type":"Point","coordinates":[-5.1081284479999454,33.528386473000069]},"properties":{"FID":77,"OBJECTID":78,"NOM":"Ifrane"}},{"type":"Feature","id":78,"geometry":{"type":"Point","coordinates":[-6.0645384129999798,33.826200785000026]},"properties":{"FID":78,"OBJECTID":79,"NOM":"Khemisset"}},{"type":"Feature","id":79,"geometry":{"type":"Point","coordinates":[-6.6000149379999584,33.526403681000033]},"properties":{"FID":79,"OBJECTID":80,"NOM":"Rommani"}},{"type":"Feature","id":80,"geometry":{"type":"Point","coordinates":[-7.1231997349999574,33.616373967000072]},"properties":{"FID":80,"OBJECTID":81,"NOM":"Ben Slimane"}},{"type":"Feature","id":81,"geometry":{"type":"Point","coordinates":[-7.6204889699999399,33.004281371000047]},"properties":{"FID":81,"OBJECTID":82,"NOM":"Settat"}},{"type":"Feature","id":82,"geometry":{"type":"Point","coordinates":[-7.5881977569999322,33.265034393000064]},"properties":{"FID":82,"OBJECTID":83,"NOM":"Berrechid"}},{"type":"Feature","id":83,"geometry":{"type":"Point","coordinates":[-7.392836013999954,33.690915320000045]},"properties":{"FID":83,"OBJECTID":84,"NOM":"Mohammedia"}},{"type":"Feature","id":84,"geometry":{"type":"Point","coordinates":[-8.3473916509999526,33.291665863000048]},"properties":{"FID":84,"OBJECTID":85,"NOM":"Azemmour"}},{"type":"Feature","id":85,"geometry":{"type":"Point","coordinates":[-8.631166281999981,32.078462664000028]},"properties":{"FID":85,"OBJECTID":86,"NOM":"Chemmaia"}},{"type":"Feature","id":86,"geometry":{"type":"Point","coordinates":[-8.5283538839999551,32.250141358000064]},"properties":{"FID":86,"OBJECTID":87,"NOM":"Youssoufia"}},{"type":"Feature","id":87,"geometry":{"type":"Point","coordinates":[-8.4294671859999539,32.655272424000032]},"properties":{"FID":87,"OBJECTID":88,"NOM":"Sidi Bennour"}},{"type":"Feature","id":88,"geometry":{"type":"Point","coordinates":[-7.9588778659999662,32.238030809000065]},"properties":{"FID":88,"OBJECTID":89,"NOM":"Benguerir"}},{"type":"Feature","id":89,"geometry":{"type":"Point","coordinates":[-6.6921004069999412,32.501906041000041]},"properties":{"FID":89,"OBJECTID":90,"NOM":"Fkih Ben Saleh"}},{"type":"Feature","id":90,"geometry":{"type":"Point","coordinates":[-6.9112965659999759,32.878328661000069]},"properties":{"FID":90,"OBJECTID":91,"NOM":"Khouribga"}},{"type":"Feature","id":91,"geometry":{"type":"Point","coordinates":[-6.5716992979999418,32.863684890000059]},"properties":{"FID":91,"OBJECTID":92,"NOM":"Oued Zem"}},{"type":"Feature","id":92,"geometry":{"type":"Point","coordinates":[-5.663753091999979,32.939665478000052]},"properties":{"FID":92,"OBJECTID":93,"NOM":"Khenifra"}},{"type":"Feature","id":93,"geometry":{"type":"Point","coordinates":[-4.5052459559999534,32.260318985000026]},"properties":{"FID":93,"OBJECTID":94,"NOM":"Rich"}},{"type":"Feature","id":94,"geometry":{"type":"Point","coordinates":[-4.7415418599999271,32.682844572000079]},"properties":{"FID":94,"OBJECTID":95,"NOM":"Midelt"}},{"type":"Feature","id":95,"geometry":{"type":"Point","coordinates":[-4.6448433309999473,34.541647538000063]},"properties":{"FID":95,"OBJECTID":96,"NOM":"Taounate"}},{"type":"Feature","id":96,"geometry":{"type":"Point","coordinates":[-4.3122734979999677,34.939471773000037]},"properties":{"FID":96,"OBJECTID":97,"NOM":"Targuist"}},{"type":"Feature","id":97,"geometry":{"type":"Point","coordinates":[-3.8685900459999516,34.65670399000004]},"properties":{"FID":97,"OBJECTID":98,"NOM":"Aknoul"}},{"type":"Feature","id":98,"geometry":{"type":"Point","coordinates":[-3.5368813249999675,34.941323992000036]},"properties":{"FID":98,"OBJECTID":99,"NOM":"Midar"}},{"type":"Feature","id":99,"geometry":{"type":"Point","coordinates":[-2.7345774949999395,34.94208640800008]},"properties":{"FID":99,"OBJECTID":100,"NOM":"Zaio"}},{"type":"Feature","id":100,"geometry":{"type":"Point","coordinates":[-7.4127021449999688,32.051624564000065]},"properties":{"FID":100,"OBJECTID":101,"NOM":"Kelaa Sraghna"}},{"type":"Feature","id":101,"geometry":{"type":"Point","coordinates":[-6.9603829689999657,31.92199325200005]},"properties":{"FID":101,"OBJECTID":102,"NOM":"Souk Foum Jemaa"}},{"type":"Feature","id":102,"geometry":{"type":"Point","coordinates":[-5.3312574819999554,35.893469371000037]},"properties":{"FID":102,"OBJECTID":103,"NOM":"Sebta"}},{"type":"Feature","id":103,"geometry":{"type":"Point","coordinates":[-3.0615731319999782,32.041297993000057]},"properties":{"FID":103,"OBJECTID":104,"NOM":"Bouanane"}},{"type":"Feature","id":104,"geometry":{"type":"Point","coordinates":[-3.4422983709999357,32.30869363100004]},"properties":{"FID":104,"OBJECTID":105,"NOM":"Bni Tadjite"}},{"type":"Feature","id":105,"geometry":{"type":"Point","coordinates":[-3.4587252909999506,32.542236935000062]},"properties":{"FID":105,"OBJECTID":106,"NOM":"Talssint"}},{"type":"Feature","id":106,"geometry":{"type":"Point","coordinates":[-2.0477085109999393,32.722396887000059]},"properties":{"FID":106,"OBJECTID":107,"NOM":"Tendrara"}},{"type":"Feature","id":107,"geometry":{"type":"Point","coordinates":[-1.952658577999955,32.523012717000029]},"properties":{"FID":107,"OBJECTID":108,"NOM":"bouarfa"}},{"type":"Feature","id":108,"geometry":{"type":"Point","coordinates":[-1.3029158029999621,32.091188094000074]},"properties":{"FID":108,"OBJECTID":109,"NOM":"Figuig"}},{"type":"Feature","id":109,"geometry":{"type":"Point","coordinates":[-3.0349253659999249,33.989306154000076]},"properties":{"FID":109,"OBJECTID":110,"NOM":"Debdou"}},{"type":"Feature","id":110,"geometry":{"type":"Point","coordinates":[-2.0132169859999749,34.007136080000066]},"properties":{"FID":110,"OBJECTID":111,"NOM":"ain Bni Mathar"}},{"type":"Feature","id":111,"geometry":{"type":"Point","coordinates":[-8.1765291999999477,31.863986000000068]},"properties":{"FID":111,"OBJECTID":112,"NOM":"Kettara"}},{"type":"Feature","id":112,"geometry":{"type":"Point","coordinates":[-7.9410868169999276,31.905449612000041]},"properties":{"FID":112,"OBJECTID":113,"NOM":"Sidi Bou_othmane"}},{"type":"Feature","id":113,"geometry":{"type":"Point","coordinates":[-3.3551890009999283,34.235205806000067]},"properties":{"FID":113,"OBJECTID":114,"NOM":"Guercif"}}]}